{"businesses": [{"id": "ytynqOUb3hjKeJfRj5Tshw", "alias": "reading-terminal-market-philadelphia", "name": "Reading Terminal Market", "image_url": "https://s3-media1.fl.yelpcdn.com/bphoto/2h_XVqLpMyBgF6x9zDPUUA/o.jpg", "is_closed": false, "url": "https://www.yelp.com/biz/reading-terminal-market-philadelphia?adjust_creative=h9xoZ5pBNGJgPGYptHIZYg&utm_campaign=yelp_api_v3&utm_medium=api_v3_business_search&utm_source=h9xoZ5pBNGJgPGYptHIZYg", "review_count": 6148, "categories": [{"alias": "food_court", "title": "Food Court"}, {"alias": "publicmarkets", "title": "Public Markets"}], "rating": 4.5, "coordinates": {"latitude": 39.953341464505, "longitude": -75.1588545174235}, "transactions": ["pickup", "delivery"], "price": "$$", "location": {"address1": "51 N 12th St", "address2": "", "address3": "", "city": "Philadelphia", "zip_code": "19107", "country": "US", "state": "PA", "display_address": ["51 N 12th St", "Philadelphia, PA 19107"]}, "phone": "+12159222317", "display_phone": "(215) 922-2317", "distance": 6467.805997578769}, {"id": "ctHjyadbDQAtUFfkcAFEHw", "alias": "zahav-philadelphia", "name": "Zahav", "image_url": "https://s3-media1.fl.yelpcdn.com/bphoto/H52tmZcsqvqiRW9VfY0HXw/o.jpg", "is_closed": false, "url": "https://www.yelp.com/biz/zahav-philadelphia?adjust_creative=h9xoZ5pBNGJgPGYptHIZYg&utm_campaign=yelp_api_v3&utm_medium=api_v3_business_search&utm_source=h9xoZ5pBNGJgPGYptHIZYg", "review_count": 3206, "categories": [{"alias": "mideastern", "title": "Middle Eastern"}], "rating": 4.5, "coordinates": {"latitude": 39.9462611465167, "longitude": -75.1451350778608}, "transactions": ["delivery"], "price": "$$$$", "location": {"address1": "237 St James Pl", "address2": "", "address3": "", "city": "Philadelphia", "zip_code": "19106", "country": "US", "state": "PA", "display_address": ["237 St James Pl", "Philadelphia, PA 19106"]}, "phone": "+12156258800", "display_phone": "(215) 625-8800", "distance": 6645.490355272185}, {"id": "K7KHmHzxNwzqiijSJeKe_A", "alias": "cafe-la-maude-philadelphia", "name": "Cafe La Maude", "image_url": "https://s3-media4.fl.yelpcdn.com/bphoto/saX3QNHE88Irft8HHm2Y1A/o.jpg", "is_closed": false, "url": "https://www.yelp.com/biz/cafe-la-maude-philadelphia?adjust_creative=h9xoZ5pBNGJgPGYptHIZYg&utm_campaign=yelp_api_v3&utm_medium=api_v3_business_search&utm_source=h9xoZ5pBNGJgPGYptHIZYg", "review_count": 1623, "categories": [{"alias": "cafes", "title": "Cafes"}, {"alias": "breakfast_brunch", "title": "Breakfast & Brunch"}, {"alias": "mediterranean", "title": "Mediterranean"}], "rating": 4.5, "coordinates": {"latitude": 39.963948, "longitude": -75.144364}, "transactions": ["delivery"], "price": "$$", "location": {"address1": "816 N 4th St", "address2": "", "address3": "", "city": "Philadelphia", "zip_code": "19123", "country": "US", "state": "PA", "display_address": ["816 N 4th St", "Philadelphia, PA 19123"]}, "phone": "+12673187869", "display_phone": "(267) 318-7869", "distance": 4823.286199388903}, {"id": "6ajnOk0GcY9xbb5Ocaw8Gw", "alias": "barbuzzo-philadelphia", "name": "Barbuzzo", "image_url": "https://s3-media3.fl.yelpcdn.com/bphoto/vCTPQ20REeES-bqyUTEstw/o.jpg", "is_closed": false, "url": "https://www.yelp.com/biz/barbuzzo-philadelphia?adjust_creative=h9xoZ5pBNGJgPGYptHIZYg&utm_campaign=yelp_api_v3&utm_medium=api_v3_business_search&utm_source=h9xoZ5pBNGJgPGYptHIZYg", "review_count": 3030, "categories": [{"alias": "mediterranean", "title": "Mediterranean"}, {"alias": "pizza", "title": "Pizza"}, {"alias": "italian", "title": "Italian"}], "rating": 4.5, "coordinates": {"latitude": 39.94999, "longitude": -75.16216}, "transactions": ["pickup", "delivery"], "price": "$$", "location": {"address1": "110 S 13th St", "address2": "", "address3": "", "city": "Philadelphia", "zip_code": "19107", "country": "US", "state": "PA", "display_address": ["110 S 13th St", "Philadelphia, PA 19107"]}, "phone": "+12155469300", "display_phone": "(215) 546-9300", "distance": 6932.124289712961}, {"id": "atZ_olNKXOG4rEr6mccN8g", "alias": "beilers-bakery-philadelphia", "name": "Beiler's Bakery", "image_url": "https://s3-media1.fl.yelpcdn.com/bphoto/-A4A-Kn4Pd0W4Dl8BDuIGA/o.jpg", "is_closed": false, "url": "https://www.yelp.com/biz/beilers-bakery-philadelphia?adjust_creative=h9xoZ5pBNGJgPGYptHIZYg&utm_campaign=yelp_api_v3&utm_medium=api_v3_business_search&utm_source=h9xoZ5pBNGJgPGYptHIZYg", "review_count": 1415, "categories": [{"alias": "bakeries", "title": "Bakeries"}, {"alias": "donuts", "title": "Donuts"}], "rating": 4.5, "coordinates": {"latitude": 39.953764, "longitude": -75.159218}, "transactions": ["pickup", "delivery"], "price": "$", "location": {"address1": "51 N 12th St", "address2": "", "address3": "", "city": "Philadelphia", "zip_code": "19107", "country": "US", "state": "PA", "display_address": ["51 N 12th St", "Philadelphia, PA 19107"]}, "phone": "+12673187480", "display_phone": "(267) 318-7480", "distance": 6445.363336091122}, {"id": "i_FWONQD1ZBqrNE2b-M5Ug", "alias": "talulas-garden-philadelphia", "name": "Talula's Garden", "image_url": "https://s3-media2.fl.yelpcdn.com/bphoto/TNtMu58kgijqqvol8tr2WA/o.jpg", "is_closed": false, "url": "https://www.yelp.com/biz/talulas-garden-philadelphia?adjust_creative=h9xoZ5pBNGJgPGYptHIZYg&utm_campaign=yelp_api_v3&utm_medium=api_v3_business_search&utm_source=h9xoZ5pBNGJgPGYptHIZYg", "review_count": 2045, "categories": [{"alias": "newamerican", "title": "American (New)"}], "rating": 4.5, "coordinates": {"latitude": 39.9473272217862, "longitude": -75.1535421779099}, "transactions": ["delivery"], "price": "$$$", "location": {"address1": "210 W Washington Sq", "address2": "", "address3": "", "city": "Philadelphia", "zip_code": "19106", "country": "US", "state": "PA", "display_address": ["210 W Washington Sq", "Philadelphia, PA 19106"]}, "phone": "+12155927787", "display_phone": "(215) 592-7787", "distance": 6824.330171053541}, {"id": "8pqdJjefYq-a9IBSJJmKwA", "alias": "the-dandelion-philadelphia", "name": "The Dandelion", "image_url": "https://s3-media3.fl.yelpcdn.com/bphoto/NQxNOUXGznTVrzn85tdO_g/o.jpg", "is_closed": false, "url": "https://www.yelp.com/biz/the-dandelion-philadelphia?adjust_creative=h9xoZ5pBNGJgPGYptHIZYg&utm_campaign=yelp_api_v3&utm_medium=api_v3_business_search&utm_source=h9xoZ5pBNGJgPGYptHIZYg", "review_count": 2636, "categories": [{"alias": "gastropubs", "title": "Gastropubs"}, {"alias": "british", "title": "British"}], "rating": 4.0, "coordinates": {"latitude": 39.951004, "longitude": -75.170636}, "transactions": ["pickup", "delivery"], "price": "$$", "location": {"address1": "124 S 18th St", "address2": "", "address3": "", "city": "Philadelphia", "zip_code": "19103", "country": "US", "state": "PA", "display_address": ["124 S 18th St", "Philadelphia, PA 19103"]}, "phone": "+12155582500", "display_phone": "(215) 558-2500", "distance": 7265.120762743397}, {"id": "j-qtdD55OLfSqfsWuQTDJg", "alias": "parc-philadelphia-2", "name": "Parc", "image_url": "https://s3-media3.fl.yelpcdn.com/bphoto/0vGzdKssl2CEbecvtOGxHw/o.jpg", "is_closed": false, "url": "https://www.yelp.com/biz/parc-philadelphia-2?adjust_creative=h9xoZ5pBNGJgPGYptHIZYg&utm_campaign=yelp_api_v3&utm_medium=api_v3_business_search&utm_source=h9xoZ5pBNGJgPGYptHIZYg", "review_count": 2939, "categories": [{"alias": "french", "title": "French"}, {"alias": "wine_bars", "title": "Wine Bars"}, {"alias": "breakfast_brunch", "title": "Breakfast & Brunch"}], "rating": 4.0, "coordinates": {"latitude": 39.9491724, "longitude": -75.1707273}, "transactions": ["pickup", "delivery"], "price": "$$$", "location": {"address1": "227 S 18th St", "address2": "", "address3": "", "city": "Philadelphia", "zip_code": "19103", "country": "US", "state": "PA", "display_address": ["227 S 18th St", "Philadelphia, PA 19103"]}, "phone": "+12155452262", "display_phone": "(215) 545-2262", "distance": 7430.522417438372}, {"id": "2CDI713ATuxHfnB5b-sBdw", "alias": "vedge-philadelphia", "name": "Vedge", "image_url": "https://s3-media3.fl.yelpcdn.com/bphoto/fU-wK0ZORPv6zP-CwbCOkw/o.jpg", "is_closed": false, "url": "https://www.yelp.com/biz/vedge-philadelphia?adjust_creative=h9xoZ5pBNGJgPGYptHIZYg&utm_campaign=yelp_api_v3&utm_medium=api_v3_business_search&utm_source=h9xoZ5pBNGJgPGYptHIZYg", "review_count": 1511, "categories": [{"alias": "vegan", "title": "Vegan"}, {"alias": "vegetarian", "title": "Vegetarian"}], "rating": 4.5, "coordinates": {"latitude": 39.9479310476302, "longitude": -75.1614279836694}, "transactions": ["delivery"], "price": "$$$", "location": {"address1": "1221 Locust St", "address2": "", "address3": "", "city": "Philadelphia", "zip_code": "19107", "country": "US", "state": "PA", "display_address": ["1221 Locust St", "Philadelphia, PA 19107"]}, "phone": "+12153207500", "display_phone": "(215) 320-7500", "distance": 7093.592393893692}, {"id": "6_T2xzR74JqGCTPefAD8Tw", "alias": "morimoto-philadelphia", "name": "Morimoto", "image_url": "https://s3-media1.fl.yelpcdn.com/bphoto/F4qxbFNwlEh7sVlZ_WXKrw/o.jpg", "is_closed": false, "url": "https://www.yelp.com/biz/morimoto-philadelphia?adjust_creative=h9xoZ5pBNGJgPGYptHIZYg&utm_campaign=yelp_api_v3&utm_medium=api_v3_business_search&utm_source=h9xoZ5pBNGJgPGYptHIZYg", "review_count": 1995, "categories": [{"alias": "japanese", "title": "Japanese"}, {"alias": "sushi", "title": "Sushi Bars"}], "rating": 4.5, "coordinates": {"latitude": 39.9496652298936, "longitude": -75.1532727008282}, "transactions": ["pickup", "delivery"], "price": "$$$$", "location": {"address1": "723 Chestnut St", "address2": "", "address3": "", "city": "Philadelphia", "zip_code": "19106", "country": "US", "state": "PA", "display_address": ["723 Chestnut St", "Philadelphia, PA 19106"]}, "phone": "+12154139070", "display_phone": "(215) 413-9070", "distance": 6582.3174412929975}, {"id": "ntiIq1FNqduOyyowMFGh5A", "alias": "nan-zhou-hand-drawn-noodle-house-philadelphia", "name": "Nan Zhou Hand Drawn Noodle House", "image_url": "https://s3-media1.fl.yelpcdn.com/bphoto/qnyDK-aROHA-vRhsO-NSVA/o.jpg", "is_closed": false, "url": "https://www.yelp.com/biz/nan-zhou-hand-drawn-noodle-house-philadelphia?adjust_creative=h9xoZ5pBNGJgPGYptHIZYg&utm_campaign=yelp_api_v3&utm_medium=api_v3_business_search&utm_source=h9xoZ5pBNGJgPGYptHIZYg", "review_count": 2263, "categories": [{"alias": "chinese", "title": "Chinese"}, {"alias": "noodles", "title": "Noodles"}], "rating": 4.0, "coordinates": {"latitude": 39.9554005670665, "longitude": -75.1569010985796}, "transactions": ["pickup", "delivery"], "price": "$$", "location": {"address1": "1022 Race St", "address2": "", "address3": "", "city": "Philadelphia", "zip_code": "19107", "country": "US", "state": "PA", "display_address": ["1022 Race St", "Philadelphia, PA 19107"]}, "phone": "+12159231550", "display_phone": "(215) 923-1550", "distance": 6185.153013244988}, {"id": "RQAF6a0akMiot5lZZnMNNw", "alias": "dalessandro-s-steaks-and-hoagies-philadelphia", "name": "Dalessandro\u2019s Steaks & Hoagies", "image_url": "https://s3-media1.fl.yelpcdn.com/bphoto/MRvZIW_CBbrm2Dhbuk6U3Q/o.jpg", "is_closed": false, "url": "https://www.yelp.com/biz/dalessandro-s-steaks-and-hoagies-philadelphia?adjust_creative=h9xoZ5pBNGJgPGYptHIZYg&utm_campaign=yelp_api_v3&utm_medium=api_v3_business_search&utm_source=h9xoZ5pBNGJgPGYptHIZYg", "review_count": 2899, "categories": [{"alias": "sandwiches", "title": "Sandwiches"}, {"alias": "cheesesteaks", "title": "Cheesesteaks"}], "rating": 4.0, "coordinates": {"latitude": 40.029494, "longitude": -75.2059714}, "transactions": ["delivery"], "price": "$$", "location": {"address1": "600 Wendover St", "address2": "", "address3": "", "city": "Philadelphia", "zip_code": "19128", "country": "US", "state": "PA", "display_address": ["600 Wendover St", "Philadelphia, PA 19128"]}, "phone": "+12154825407", "display_phone": "(215) 482-5407", "distance": 8111.519762456322}, {"id": "vUrTGX_7HxqeoQ_6QCVz6g", "alias": "suraya-philadelphia-2", "name": "Suraya", "image_url": "https://s3-media1.fl.yelpcdn.com/bphoto/H6vumhULeuBQESdnGKxq0w/o.jpg", "is_closed": false, "url": "https://www.yelp.com/biz/suraya-philadelphia-2?adjust_creative=h9xoZ5pBNGJgPGYptHIZYg&utm_campaign=yelp_api_v3&utm_medium=api_v3_business_search&utm_source=h9xoZ5pBNGJgPGYptHIZYg", "review_count": 1240, "categories": [{"alias": "lebanese", "title": "Lebanese"}, {"alias": "gourmet", "title": "Specialty Food"}, {"alias": "coffee", "title": "Coffee & Tea"}], "rating": 4.5, "coordinates": {"latitude": 39.9736865005167, "longitude": -75.1339557766914}, "transactions": ["delivery"], "price": "$$$", "location": {"address1": "1528 Frankford Ave", "address2": "", "address3": null, "city": "Philadelphia", "zip_code": "19125", "country": "US", "state": "PA", "display_address": ["1528 Frankford Ave", "Philadelphia, PA 19125"]}, "phone": "+12153021900", "display_phone": "(215) 302-1900", "distance": 3460.6353701191097}, {"id": "S8ZFYEgMejpChID8tzKo9A", "alias": "amada-philadelphia", "name": "Amada", "image_url": "https://s3-media1.fl.yelpcdn.com/bphoto/MEkBU1U5896zU2Gn8vrbcw/o.jpg", "is_closed": false, "url": "https://www.yelp.com/biz/amada-philadelphia?adjust_creative=h9xoZ5pBNGJgPGYptHIZYg&utm_campaign=yelp_api_v3&utm_medium=api_v3_business_search&utm_source=h9xoZ5pBNGJgPGYptHIZYg", "review_count": 2186, "categories": [{"alias": "tapas", "title": "Tapas Bars"}, {"alias": "spanish", "title": "Spanish"}, {"alias": "iberian", "title": "Iberian"}], "rating": 4.0, "coordinates": {"latitude": 39.948586352529006, "longitude": -75.14491311884603}, "transactions": ["delivery"], "price": "$$", "location": {"address1": "217 Chestnut St", "address2": null, "address3": "", "city": "Philadelphia", "zip_code": "19106", "country": "US", "state": "PA", "display_address": ["217 Chestnut St", "Philadelphia, PA 19106"]}, "phone": "+12153986968", "display_phone": "(215) 398-6968", "distance": 6397.274783551012}, {"id": "9PZxjhTIU7OgPIzuGi89Ew", "alias": "el-vez-philadelphia", "name": "El Vez", "image_url": "https://s3-media2.fl.yelpcdn.com/bphoto/7vgyqhZfxvYFImtkB9FECQ/o.jpg", "is_closed": false, "url": "https://www.yelp.com/biz/el-vez-philadelphia?adjust_creative=h9xoZ5pBNGJgPGYptHIZYg&utm_campaign=yelp_api_v3&utm_medium=api_v3_business_search&utm_source=h9xoZ5pBNGJgPGYptHIZYg", "review_count": 3355, "categories": [{"alias": "mexican", "title": "Mexican"}, {"alias": "breakfast_brunch", "title": "Breakfast & Brunch"}], "rating": 4.0, "coordinates": {"latitude": 39.9497020026001, "longitude": -75.1617702841759}, "transactions": ["delivery"], "price": "$$", "location": {"address1": "121 S 13th St", "address2": "", "address3": "", "city": "Philadelphia", "zip_code": "19107", "country": "US", "state": "PA", "display_address": ["121 S 13th St", "Philadelphia, PA 19107"]}, "phone": "+12159289800", "display_phone": "(215) 928-9800", "distance": 6942.607495713396}, {"id": "Sv1MEZP-mMfp8SmE0hwYEA", "alias": "terakawa-ramen-philadelphia", "name": "Terakawa Ramen", "image_url": "https://s3-media4.fl.yelpcdn.com/bphoto/I1mgBl54fXBfxqnSN_gXug/o.jpg", "is_closed": false, "url": "https://www.yelp.com/biz/terakawa-ramen-philadelphia?adjust_creative=h9xoZ5pBNGJgPGYptHIZYg&utm_campaign=yelp_api_v3&utm_medium=api_v3_business_search&utm_source=h9xoZ5pBNGJgPGYptHIZYg", "review_count": 1784, "categories": [{"alias": "ramen", "title": "Ramen"}], "rating": 4.5, "coordinates": {"latitude": 39.9553986, "longitude": -75.15448}, "transactions": ["delivery"], "price": "$$", "location": {"address1": "204 N 9th St", "address2": "", "address3": "", "city": "Philadelphia", "zip_code": "19107", "country": "US", "state": "PA", "display_address": ["204 N 9th St", "Philadelphia, PA 19107"]}, "phone": "+12676871355", "display_phone": "(267) 687-1355", "distance": 6076.109902790407}, {"id": "iksVwRfpWymIUUFqw0tXpw", "alias": "chubby-cattle-philadelphia-5", "name": "Chubby Cattle", "image_url": "https://s3-media3.fl.yelpcdn.com/bphoto/-0F9X-5WZBevd41EG0y1ew/o.jpg", "is_closed": false, "url": "https://www.yelp.com/biz/chubby-cattle-philadelphia-5?adjust_creative=h9xoZ5pBNGJgPGYptHIZYg&utm_campaign=yelp_api_v3&utm_medium=api_v3_business_search&utm_source=h9xoZ5pBNGJgPGYptHIZYg", "review_count": 1295, "categories": [{"alias": "chinese", "title": "Chinese"}, {"alias": "hotpot", "title": "Hot Pot"}, {"alias": "seafood", "title": "Seafood"}], "rating": 4.5, "coordinates": {"latitude": 39.95498, "longitude": -75.15622}, "transactions": ["pickup", "delivery"], "price": "$$", "location": {"address1": "146 N 10th St", "address2": "", "address3": null, "city": "Philadelphia", "zip_code": "19107", "country": "US", "state": "PA", "display_address": ["146 N 10th St", "Philadelphia, PA 19107"]}, "phone": "+18666228853", "display_phone": "(866) 622-8853", "distance": 6186.810698368317}, {"id": "qQO7ErS_RAN4Vs1uX0L55Q", "alias": "the-franklin-fountain-philadelphia", "name": "The Franklin Fountain", "image_url": "https://s3-media4.fl.yelpcdn.com/bphoto/IDIn5oqcaIEdEQo92ccciw/o.jpg", "is_closed": false, "url": "https://www.yelp.com/biz/the-franklin-fountain-philadelphia?adjust_creative=h9xoZ5pBNGJgPGYptHIZYg&utm_campaign=yelp_api_v3&utm_medium=api_v3_business_search&utm_source=h9xoZ5pBNGJgPGYptHIZYg", "review_count": 2135, "categories": [{"alias": "icecream", "title": "Ice Cream & Frozen Yogurt"}, {"alias": "desserts", "title": "Desserts"}], "rating": 4.0, "coordinates": {"latitude": 39.94957, "longitude": -75.14291}, "transactions": ["pickup", "delivery"], "price": "$$", "location": {"address1": "116 Market St", "address2": null, "address3": "", "city": "Philadelphia", "zip_code": "19106", "country": "US", "state": "PA", "display_address": ["116 Market St", "Philadelphia, PA 19106"]}, "phone": "+12156271899", "display_phone": "(215) 627-1899", "distance": 6234.390773192287}, {"id": "ZF0tt7hn6WK3-aNWgtLcFA", "alias": "eastern-state-penitentiary-historic-site-philadelphia", "name": "Eastern State Penitentiary Historic Site", "image_url": "https://s3-media3.fl.yelpcdn.com/bphoto/E9gRFiZBhk-oHRgrPcD9KA/o.jpg", "is_closed": false, "url": "https://www.yelp.com/biz/eastern-state-penitentiary-historic-site-philadelphia?adjust_creative=h9xoZ5pBNGJgPGYptHIZYg&utm_campaign=yelp_api_v3&utm_medium=api_v3_business_search&utm_source=h9xoZ5pBNGJgPGYptHIZYg", "review_count": 863, "categories": [{"alias": "landmarks", "title": "Landmarks & Historical Buildings"}], "rating": 4.5, "coordinates": {"latitude": 39.968384, "longitude": -75.172483}, "transactions": [], "location": {"address1": "2027 Fairmount Ave", "address2": "", "address3": "", "city": "Philadelphia", "zip_code": "19130", "country": "US", "state": "PA", "display_address": ["2027 Fairmount Ave", "Philadelphia, PA 19130"]}, "phone": "+12152363300", "display_phone": "(215) 236-3300", "distance": 6009.071546331644}, {"id": "0RuvlgTnKFbX3IK0ZOOocA", "alias": "green-eggs-caf\u00e9-philadelphia-7", "name": "Green Eggs Caf\u00e9", "image_url": "https://s3-media1.fl.yelpcdn.com/bphoto/8osV0DR1Hdx1QjMChdvkig/o.jpg", "is_closed": false, "url": "https://www.yelp.com/biz/green-eggs-caf%C3%A9-philadelphia-7?adjust_creative=h9xoZ5pBNGJgPGYptHIZYg&utm_campaign=yelp_api_v3&utm_medium=api_v3_business_search&utm_source=h9xoZ5pBNGJgPGYptHIZYg", "review_count": 2799, "categories": [{"alias": "breakfast_brunch", "title": "Breakfast & Brunch"}, {"alias": "newamerican", "title": "American (New)"}, {"alias": "cafes", "title": "Cafes"}], "rating": 4.0, "coordinates": {"latitude": 39.9481225532898, "longitude": -75.1624631121383}, "transactions": ["delivery"], "price": "$$", "location": {"address1": "212 S 13th St", "address2": "", "address3": null, "city": "Philadelphia", "zip_code": "19107", "country": "US", "state": "PA", "display_address": ["212 S 13th St", "Philadelphia, PA 19107"]}, "phone": "+12678610314", "display_phone": "(267) 861-0314", "distance": 7122.390018189475}], "total": 6200, "region": {"center": {"longitude": -75.11764526367188, "latitude": 40.00218959599397}}}