{"businesses": [{"id": "eGhOLzFFIhrvF6QjSSpJsg", "alias": "phils-bbq-san-diego-2", "name": "Phil's BBQ", "image_url": "https://s3-media2.fl.yelpcdn.com/bphoto/IijLAPbkYwMrvcMgNo_8vw/o.jpg", "is_closed": false, "url": "https://www.yelp.com/biz/phils-bbq-san-diego-2?adjust_creative=h9xoZ5pBNGJgPGYptHIZYg&utm_campaign=yelp_api_v3&utm_medium=api_v3_business_search&utm_source=h9xoZ5pBNGJgPGYptHIZYg", "review_count": 15381, "categories": [{"alias": "bbq", "title": "Barbeque"}, {"alias": "bars", "title": "Bars"}, {"alias": "tradamerican", "title": "American (Traditional)"}], "rating": 4.5, "coordinates": {"latitude": 32.7547792020658, "longitude": -117.21598848605}, "transactions": ["delivery"], "price": "$$", "location": {"address1": "3750 Sports Arena Blvd", "address2": "", "address3": "", "city": "San Diego", "zip_code": "92110", "country": "US", "state": "CA", "display_address": ["3750 Sports Arena Blvd", "San Diego, CA 92110"]}, "phone": "+16192266333", "display_phone": "(619) 226-6333", "distance": 7024.037700535082}, {"id": "FfOjwHM-Oliao8-UABaazQ", "alias": "snooze-an-a-m-eatery-san-diego-12", "name": "Snooze, an A.M. Eatery", "image_url": "https://s3-media4.fl.yelpcdn.com/bphoto/JsyRmqig3RPK7PQXHIP9uA/o.jpg", "is_closed": false, "url": "https://www.yelp.com/biz/snooze-an-a-m-eatery-san-diego-12?adjust_creative=h9xoZ5pBNGJgPGYptHIZYg&utm_campaign=yelp_api_v3&utm_medium=api_v3_business_search&utm_source=h9xoZ5pBNGJgPGYptHIZYg", "review_count": 7872, "categories": [{"alias": "breakfast_brunch", "title": "Breakfast & Brunch"}, {"alias": "tradamerican", "title": "American (Traditional)"}, {"alias": "cocktailbars", "title": "Cocktail Bars"}], "rating": 4.5, "coordinates": {"latitude": 32.74898777679314, "longitude": -117.16074156998425}, "transactions": ["delivery"], "price": "$$", "location": {"address1": "3940 5th Ave", "address2": "", "address3": "", "city": "San Diego", "zip_code": "92103", "country": "US", "state": "CA", "display_address": ["3940 5th Ave", "San Diego, CA 92103"]}, "phone": "+16195003344", "display_phone": "(619) 500-3344", "distance": 4665.381933924453}, {"id": "gGOLNK6w3ym9uF-yKI5wPA", "alias": "san-diego-zoo-san-diego", "name": "San Diego Zoo", "image_url": "https://s3-media3.fl.yelpcdn.com/bphoto/f8MTXbszSe3s7G6KlufbAw/o.jpg", "is_closed": false, "url": "https://www.yelp.com/biz/san-diego-zoo-san-diego?adjust_creative=h9xoZ5pBNGJgPGYptHIZYg&utm_campaign=yelp_api_v3&utm_medium=api_v3_business_search&utm_source=h9xoZ5pBNGJgPGYptHIZYg", "review_count": 5261, "categories": [{"alias": "zoos", "title": "Zoos"}], "rating": 4.5, "coordinates": {"latitude": 32.73531880125226, "longitude": -117.14904801400168}, "transactions": [], "location": {"address1": "2920 Zoo Dr", "address2": "", "address3": "", "city": "San Diego", "zip_code": "92101", "country": "US", "state": "CA", "display_address": ["2920 Zoo Dr", "San Diego, CA 92101"]}, "phone": "+16192311515", "display_phone": "(619) 231-1515", "distance": 6161.593561846717}, {"id": "rpz4p2RsFsok450butSHqA", "alias": "hash-house-a-go-go-san-diego", "name": "Hash House A Go Go", "image_url": "https://s3-media1.fl.yelpcdn.com/bphoto/H3SEooK0YlwjvNQiSoZAlA/o.jpg", "is_closed": false, "url": "https://www.yelp.com/biz/hash-house-a-go-go-san-diego?adjust_creative=h9xoZ5pBNGJgPGYptHIZYg&utm_campaign=yelp_api_v3&utm_medium=api_v3_business_search&utm_source=h9xoZ5pBNGJgPGYptHIZYg", "review_count": 8126, "categories": [{"alias": "breakfast_brunch", "title": "Breakfast & Brunch"}, {"alias": "newamerican", "title": "American (New)"}, {"alias": "salad", "title": "Salad"}], "rating": 4.0, "coordinates": {"latitude": 32.743898, "longitude": -117.16061}, "transactions": ["pickup", "delivery"], "price": "$$", "location": {"address1": "3628 5th Ave", "address2": "", "address3": "", "city": "San Diego", "zip_code": "92103", "country": "US", "state": "CA", "display_address": ["3628 5th Ave", "San Diego, CA 92103"]}, "phone": "+16192984646", "display_phone": "(619) 298-4646", "distance": 5225.374099847368}, {"id": "3S6VtYgcXL8lRic0iV5GYQ", "alias": "sushi-ota-san-diego", "name": "Sushi Ota", "image_url": "https://s3-media2.fl.yelpcdn.com/bphoto/MtEcy_Dmb2hitJFjbAgoHw/o.jpg", "is_closed": false, "url": "https://www.yelp.com/biz/sushi-ota-san-diego?adjust_creative=h9xoZ5pBNGJgPGYptHIZYg&utm_campaign=yelp_api_v3&utm_medium=api_v3_business_search&utm_source=h9xoZ5pBNGJgPGYptHIZYg", "review_count": 4205, "categories": [{"alias": "sushi", "title": "Sushi Bars"}, {"alias": "japanese", "title": "Japanese"}], "rating": 4.5, "coordinates": {"latitude": 32.8036636, "longitude": -117.2171253}, "transactions": ["delivery"], "price": "$$$", "location": {"address1": "4529 Mission Bay Dr", "address2": "", "address3": "", "city": "San Diego", "zip_code": "92109", "country": "US", "state": "CA", "display_address": ["4529 Mission Bay Dr", "San Diego, CA 92109"]}, "phone": "+18588808778", "display_phone": "(858) 880-8778", "distance": 6032.3142353281555}, {"id": "9M_FW_-Ipx93I36w-_ykBg", "alias": "balboa-park-san-diego", "name": "Balboa Park", "image_url": "https://s3-media3.fl.yelpcdn.com/bphoto/a-ZLZKa0DyfouLNEAcWUPQ/o.jpg", "is_closed": false, "url": "https://www.yelp.com/biz/balboa-park-san-diego?adjust_creative=h9xoZ5pBNGJgPGYptHIZYg&utm_campaign=yelp_api_v3&utm_medium=api_v3_business_search&utm_source=h9xoZ5pBNGJgPGYptHIZYg", "review_count": 2423, "categories": [{"alias": "museums", "title": "Museums"}, {"alias": "parks", "title": "Parks"}, {"alias": "landmarks", "title": "Landmarks & Historical Buildings"}], "rating": 5.0, "coordinates": {"latitude": 32.731141582115406, "longitude": -117.14957154221193}, "transactions": [], "location": {"address1": "1549 El Prado", "address2": "", "address3": "", "city": "San Diego", "zip_code": "92101", "country": "US", "state": "CA", "display_address": ["1549 El Prado", "San Diego, CA 92101"]}, "phone": "+16192390512", "display_phone": "(619) 239-0512", "distance": 6621.51729701081}, {"id": "t4oCBN7Z9B7DtEtZihGCcg", "alias": "extraordinary-desserts-san-diego-2", "name": "Extraordinary Desserts", "image_url": "https://s3-media3.fl.yelpcdn.com/bphoto/6q2LcGSaRXdCSJlXvTp9qQ/o.jpg", "is_closed": false, "url": "https://www.yelp.com/biz/extraordinary-desserts-san-diego-2?adjust_creative=h9xoZ5pBNGJgPGYptHIZYg&utm_campaign=yelp_api_v3&utm_medium=api_v3_business_search&utm_source=h9xoZ5pBNGJgPGYptHIZYg", "review_count": 8370, "categories": [{"alias": "bakeries", "title": "Bakeries"}, {"alias": "cakeshop", "title": "Patisserie/Cake Shop"}], "rating": 4.0, "coordinates": {"latitude": 32.72028323758393, "longitude": -117.16596168522643}, "transactions": ["pickup", "delivery"], "price": "$$$", "location": {"address1": "1430 Union St", "address2": null, "address3": "", "city": "San Diego", "zip_code": "92101", "country": "US", "state": "CA", "display_address": ["1430 Union St", "San Diego, CA 92101"]}, "phone": "+16192947001", "display_phone": "(619) 294-7001", "distance": 7893.998034755439}, {"id": "vpnHAJ7s9sUBvg8n7yX_2A", "alias": "bronx-pizza-san-diego", "name": "Bronx Pizza", "image_url": "https://s3-media3.fl.yelpcdn.com/bphoto/GKQX9FYWHAsb22NfjdBL4Q/o.jpg", "is_closed": false, "url": "https://www.yelp.com/biz/bronx-pizza-san-diego?adjust_creative=h9xoZ5pBNGJgPGYptHIZYg&utm_campaign=yelp_api_v3&utm_medium=api_v3_business_search&utm_source=h9xoZ5pBNGJgPGYptHIZYg", "review_count": 4180, "categories": [{"alias": "pizza", "title": "Pizza"}], "rating": 4.5, "coordinates": {"latitude": 32.749768, "longitude": -117.1634597}, "transactions": ["delivery"], "price": "$", "location": {"address1": "111 Washington St", "address2": "", "address3": "", "city": "San Diego", "zip_code": "92103", "country": "US", "state": "CA", "display_address": ["111 Washington St", "San Diego, CA 92103"]}, "phone": "+16192913341", "display_phone": "(619) 291-3341", "distance": 4620.828413818315}, {"id": "IuX5vCDzmHzjbNi3wRD5Nw", "alias": "werewolf-san-diego", "name": "Werewolf", "image_url": "https://s3-media2.fl.yelpcdn.com/bphoto/8DEQmOj6EVDhBd_GQGSixg/o.jpg", "is_closed": false, "url": "https://www.yelp.com/biz/werewolf-san-diego?adjust_creative=h9xoZ5pBNGJgPGYptHIZYg&utm_campaign=yelp_api_v3&utm_medium=api_v3_business_search&utm_source=h9xoZ5pBNGJgPGYptHIZYg", "review_count": 4514, "categories": [{"alias": "bars", "title": "Bars"}, {"alias": "breakfast_brunch", "title": "Breakfast & Brunch"}, {"alias": "burgers", "title": "Burgers"}], "rating": 4.5, "coordinates": {"latitude": 32.7119428, "longitude": -117.1607806}, "transactions": ["delivery"], "price": "$$", "location": {"address1": "627 Fourth Ave", "address2": null, "address3": "", "city": "San Diego", "zip_code": "92101", "country": "US", "state": "CA", "display_address": ["627 Fourth Ave", "San Diego, CA 92101"]}, "phone": "+16192340094", "display_phone": "(619) 234-0094", "distance": 8765.274208882713}, {"id": "aY_z6z6at7wyoW7sFhf4bA", "alias": "cucina-urbana-san-diego-4", "name": "CUCINA urbana", "image_url": "https://s3-media3.fl.yelpcdn.com/bphoto/0LLt3rg3HG-OQUCARlWTcw/o.jpg", "is_closed": false, "url": "https://www.yelp.com/biz/cucina-urbana-san-diego-4?adjust_creative=h9xoZ5pBNGJgPGYptHIZYg&utm_campaign=yelp_api_v3&utm_medium=api_v3_business_search&utm_source=h9xoZ5pBNGJgPGYptHIZYg", "review_count": 4323, "categories": [{"alias": "italian", "title": "Italian"}, {"alias": "pizza", "title": "Pizza"}, {"alias": "wine_bars", "title": "Wine Bars"}], "rating": 4.5, "coordinates": {"latitude": 32.731246262774796, "longitude": -117.16009352882612}, "transactions": ["pickup", "delivery"], "price": "$$", "location": {"address1": "505 Laurel St", "address2": "", "address3": "", "city": "San Diego", "zip_code": "92101", "country": "US", "state": "CA", "display_address": ["505 Laurel St", "San Diego, CA 92101"]}, "phone": "+16192392222", "display_phone": "(619) 239-2222", "distance": 6620.3218396033}, {"id": "e60v5yO7LX77Y10A5hA-9A", "alias": "bahn-thai-san-diego", "name": "Bahn Thai", "image_url": "https://s3-media3.fl.yelpcdn.com/bphoto/IW0BtnNhNUmZsqOKpLMk8Q/o.jpg", "is_closed": false, "url": "https://www.yelp.com/biz/bahn-thai-san-diego?adjust_creative=h9xoZ5pBNGJgPGYptHIZYg&utm_campaign=yelp_api_v3&utm_medium=api_v3_business_search&utm_source=h9xoZ5pBNGJgPGYptHIZYg", "review_count": 2817, "categories": [{"alias": "thai", "title": "Thai"}], "rating": 4.5, "coordinates": {"latitude": 32.7618085751424, "longitude": -117.146594524384}, "transactions": ["delivery"], "price": "$$", "location": {"address1": "4646 Park Blvd", "address2": "Ste 3", "address3": "", "city": "San Diego", "zip_code": "92116", "country": "US", "state": "CA", "display_address": ["4646 Park Blvd", "Ste 3", "San Diego, CA 92116"]}, "phone": "+16192996363", "display_phone": "(619) 299-6363", "distance": 3273.795077354497}, {"id": "mbG2JAAQ33kKuO3PMPUObg", "alias": "ironside-fish-and-oyster-san-diego", "name": "Ironside Fish & Oyster", "image_url": "https://s3-media3.fl.yelpcdn.com/bphoto/14SitQqd11veUVWvd3rOXw/o.jpg", "is_closed": false, "url": "https://www.yelp.com/biz/ironside-fish-and-oyster-san-diego?adjust_creative=h9xoZ5pBNGJgPGYptHIZYg&utm_campaign=yelp_api_v3&utm_medium=api_v3_business_search&utm_source=h9xoZ5pBNGJgPGYptHIZYg", "review_count": 4706, "categories": [{"alias": "seafood", "title": "Seafood"}, {"alias": "raw_food", "title": "Live/Raw Food"}], "rating": 4.5, "coordinates": {"latitude": 32.72267, "longitude": -117.16856}, "transactions": ["delivery"], "price": "$$", "location": {"address1": "1654 India St", "address2": "", "address3": "", "city": "San Diego", "zip_code": "92101", "country": "US", "state": "CA", "display_address": ["1654 India St", "San Diego, CA 92101"]}, "phone": "+16192693033", "display_phone": "(619) 269-3033", "distance": 7667.801632500451}, {"id": "J55fX2Gs-ry0XNCnEDiLNQ", "alias": "donut-bar-san-diego", "name": "Donut Bar", "image_url": "https://s3-media1.fl.yelpcdn.com/bphoto/EMOA2-OrpEpbo5D9bPx2qQ/o.jpg", "is_closed": false, "url": "https://www.yelp.com/biz/donut-bar-san-diego?adjust_creative=h9xoZ5pBNGJgPGYptHIZYg&utm_campaign=yelp_api_v3&utm_medium=api_v3_business_search&utm_source=h9xoZ5pBNGJgPGYptHIZYg", "review_count": 4958, "categories": [{"alias": "breakfast_brunch", "title": "Breakfast & Brunch"}, {"alias": "donuts", "title": "Donuts"}, {"alias": "beerbar", "title": "Beer Bar"}], "rating": 4.5, "coordinates": {"latitude": 32.7176535913556, "longitude": -117.158730314958}, "transactions": ["pickup", "delivery"], "price": "$", "location": {"address1": "631 B St", "address2": null, "address3": "", "city": "San Diego", "zip_code": "92101", "country": "US", "state": "CA", "display_address": ["631 B St", "San Diego, CA 92101"]}, "phone": "+16192556360", "display_phone": "(619) 255-6360", "distance": 8119.4961813988675}, {"id": "VuR1rTb3XpOr8z0r8jC3eg", "alias": "great-maple-hillcrest-san-diego", "name": "Great Maple - Hillcrest", "image_url": "https://s3-media2.fl.yelpcdn.com/bphoto/DFltaLqX2dFyfzKOOvnEIw/o.jpg", "is_closed": false, "url": "https://www.yelp.com/biz/great-maple-hillcrest-san-diego?adjust_creative=h9xoZ5pBNGJgPGYptHIZYg&utm_campaign=yelp_api_v3&utm_medium=api_v3_business_search&utm_source=h9xoZ5pBNGJgPGYptHIZYg", "review_count": 4217, "categories": [{"alias": "breakfast_brunch", "title": "Breakfast & Brunch"}, {"alias": "newamerican", "title": "American (New)"}, {"alias": "bars", "title": "Bars"}], "rating": 4.0, "coordinates": {"latitude": 32.75171, "longitude": -117.14954}, "transactions": ["pickup", "delivery"], "price": "$$", "location": {"address1": "1451 Washington St", "address2": "", "address3": "", "city": "San Diego", "zip_code": "92103", "country": "US", "state": "CA", "display_address": ["1451 Washington St", "San Diego, CA 92103"]}, "phone": "+16192552282", "display_phone": "(619) 255-2282", "distance": 4349.671070751985}, {"id": "kkiLvnq6WQjdl-anBr3GNw", "alias": "manna-heaven-bbq-san-diego", "name": "Manna Heaven BBQ", "image_url": "https://s3-media3.fl.yelpcdn.com/bphoto/E0Yh79xOMsG8o3iK6DF_pA/o.jpg", "is_closed": false, "url": "https://www.yelp.com/biz/manna-heaven-bbq-san-diego?adjust_creative=h9xoZ5pBNGJgPGYptHIZYg&utm_campaign=yelp_api_v3&utm_medium=api_v3_business_search&utm_source=h9xoZ5pBNGJgPGYptHIZYg", "review_count": 3839, "categories": [{"alias": "korean", "title": "Korean"}, {"alias": "bbq", "title": "Barbeque"}, {"alias": "buffets", "title": "Buffets"}], "rating": 4.0, "coordinates": {"latitude": 32.8203678917066, "longitude": -117.156053715344}, "transactions": ["pickup", "delivery"], "price": "$$", "location": {"address1": "4428 Convoy St", "address2": "Ste R210", "address3": "", "city": "San Diego", "zip_code": "92111", "country": "US", "state": "CA", "display_address": ["4428 Convoy St", "Ste R210", "San Diego, CA 92111"]}, "phone": "+18582783300", "display_phone": "(858) 278-3300", "distance": 3318.5519370801603}, {"id": "rUzBCBq4cgvUw-t6Ffugvg", "alias": "plumeria-vegetarian-san-diego", "name": "Plumeria Vegetarian", "image_url": "https://s3-media3.fl.yelpcdn.com/bphoto/G3W_vidcMhr_qly9VdimLg/o.jpg", "is_closed": false, "url": "https://www.yelp.com/biz/plumeria-vegetarian-san-diego?adjust_creative=h9xoZ5pBNGJgPGYptHIZYg&utm_campaign=yelp_api_v3&utm_medium=api_v3_business_search&utm_source=h9xoZ5pBNGJgPGYptHIZYg", "review_count": 2142, "categories": [{"alias": "thai", "title": "Thai"}, {"alias": "vegetarian", "title": "Vegetarian"}, {"alias": "vegan", "title": "Vegan"}], "rating": 4.5, "coordinates": {"latitude": 32.76208, "longitude": -117.14607}, "transactions": ["pickup", "delivery"], "price": "$$", "location": {"address1": "4661 Park Blvd", "address2": "", "address3": "", "city": "San Diego", "zip_code": "92116", "country": "US", "state": "CA", "display_address": ["4661 Park Blvd", "San Diego, CA 92116"]}, "phone": "+16192699989", "display_phone": "(619) 269-9989", "distance": 3249.002826589334}, {"id": "PUcvlST3Q9b94nKMkS5wUg", "alias": "blue-water-san-diego-2", "name": "Blue Water", "image_url": "https://s3-media1.fl.yelpcdn.com/bphoto/0TO7grCJKdtHhG2GMply4w/o.jpg", "is_closed": false, "url": "https://www.yelp.com/biz/blue-water-san-diego-2?adjust_creative=h9xoZ5pBNGJgPGYptHIZYg&utm_campaign=yelp_api_v3&utm_medium=api_v3_business_search&utm_source=h9xoZ5pBNGJgPGYptHIZYg", "review_count": 3995, "categories": [{"alias": "seafood", "title": "Seafood"}, {"alias": "seafoodmarkets", "title": "Seafood Markets"}], "rating": 4.0, "coordinates": {"latitude": 32.7419837556966, "longitude": -117.179921782568}, "transactions": ["delivery"], "price": "$$", "location": {"address1": "3667 India St", "address2": null, "address3": "", "city": "San Diego", "zip_code": "92103", "country": "US", "state": "CA", "display_address": ["3667 India St", "San Diego, CA 92103"]}, "phone": "+16194970914", "display_phone": "(619) 497-0914", "distance": 5918.068251773094}, {"id": "a3yfBL2Nlm6Z6-1Yzl4ncw", "alias": "din-tai-fung-san-diego-3", "name": "Din Tai Fung", "image_url": "https://s3-media1.fl.yelpcdn.com/bphoto/Eky554WAxGSgpVhFVM2T1w/o.jpg", "is_closed": false, "url": "https://www.yelp.com/biz/din-tai-fung-san-diego-3?adjust_creative=h9xoZ5pBNGJgPGYptHIZYg&utm_campaign=yelp_api_v3&utm_medium=api_v3_business_search&utm_source=h9xoZ5pBNGJgPGYptHIZYg", "review_count": 3895, "categories": [{"alias": "taiwanese", "title": "Taiwanese"}, {"alias": "dimsum", "title": "Dim Sum"}, {"alias": "shanghainese", "title": "Shanghainese"}], "rating": 4.5, "coordinates": {"latitude": 32.872344, "longitude": -117.212553}, "transactions": ["pickup", "delivery"], "price": "$$", "location": {"address1": "4301 La Jolla Village Dr", "address2": "Bldg P Unit 2000", "address3": null, "city": "San Diego", "zip_code": "92122", "country": "US", "state": "CA", "display_address": ["4301 La Jolla Village Dr", "Bldg P Unit 2000", "San Diego, CA 92122"]}, "phone": "+18583755988", "display_phone": "(858) 375-5988", "distance": 10607.81727943139}, {"id": "IPRSekE7gtBLgo6NMhOtLQ", "alias": "the-crack-shack-san-diego-2", "name": "The Crack Shack", "image_url": "https://s3-media3.fl.yelpcdn.com/bphoto/wCzJjFWIhG1KeztL4dof_Q/o.jpg", "is_closed": false, "url": "https://www.yelp.com/biz/the-crack-shack-san-diego-2?adjust_creative=h9xoZ5pBNGJgPGYptHIZYg&utm_campaign=yelp_api_v3&utm_medium=api_v3_business_search&utm_source=h9xoZ5pBNGJgPGYptHIZYg", "review_count": 5086, "categories": [{"alias": "newamerican", "title": "American (New)"}, {"alias": "sandwiches", "title": "Sandwiches"}, {"alias": "chickenshop", "title": "Chicken Shop"}], "rating": 4.0, "coordinates": {"latitude": 32.72787, "longitude": -117.17126}, "transactions": ["pickup", "delivery"], "price": "$$", "location": {"address1": "2266 Kettner Blvd", "address2": "", "address3": "", "city": "San Diego", "zip_code": "92101", "country": "US", "state": "CA", "display_address": ["2266 Kettner Blvd", "San Diego, CA 92101"]}, "phone": "+16197953299", "display_phone": "(619) 795-3299", "distance": 7154.473467630602}, {"id": "nz_9juNiAC6JCZnUodslNA", "alias": "hodads-san-diego", "name": "Hodad's", "image_url": "https://s3-media4.fl.yelpcdn.com/bphoto/ir0zhcSWFYHQY-YEq8BB_w/o.jpg", "is_closed": false, "url": "https://www.yelp.com/biz/hodads-san-diego?adjust_creative=h9xoZ5pBNGJgPGYptHIZYg&utm_campaign=yelp_api_v3&utm_medium=api_v3_business_search&utm_source=h9xoZ5pBNGJgPGYptHIZYg", "review_count": 5982, "categories": [{"alias": "burgers", "title": "Burgers"}], "rating": 4.0, "coordinates": {"latitude": 32.74725, "longitude": -117.25099}, "transactions": ["delivery"], "price": "$$", "location": {"address1": "5010 Newport Ave", "address2": "", "address3": "", "city": "San Diego", "zip_code": "92107", "country": "US", "state": "CA", "display_address": ["5010 Newport Ave", "San Diego, CA 92107"]}, "phone": "+16192244623", "display_phone": "(619) 224-4623", "distance": 10276.684552239416}], "total": 5400, "region": {"center": {"longitude": -117.15408325195312, "latitude": 32.790569394537286}}}